[
    {
        "company": "Hydro Engineering Inc.",
        "location": "Salt Lake City, Utah",
        "dates": "Jan 2017 - Present",
        "supervisor": "Kyler Peek",
        "phone": "(801) 972-1181",
        "address": "865 W 2600 S, Salt Lake City, UT 84119",
        "title": "Web Developer",
        "duties": ["Converted entire website to Bootstrap","Several interactive Javascript functions","Built and implemented search function","Mass file adjustment via Python script"]
    },
    {
        "company": "Firetoss",
        "location": "Salt Lake City, Utah",
        "dates": "May 2016",
        "supervisor": "Joshua Green",
        "phone": "(801) 901-8408",
        "address": "332 E 500 S, Salt Lake City, UT 84111",
        "title": "Web Development Intern",
        "duties": ["Simple Wordpress tasks","Arranging page layouts","Data organization","Letter of Recommendation available"]
    },
    {
        "company": "Delta Airlines",
        "location": "Salt Lake City, Utah",
        "dates": "Aug 2015 - Feb 2016",
        "supervisor": "Samantha Carmichael",
        "phone": "(801) 575-3006",
        "address": "3842 W 1200 N, Salt Lake City, UT 84116",
        "title": "Reservations Specialist",
        "duties": ["Extensive use of reservation software AXIS","Creative problem solving","Customer care and complaint resolution"]
    },
    {
        "company": "Batteries Plus Bulbs",
        "location": "Salt Lake City, Utah",
        "dates": ["Sep 2016 - Dec 2016","May 2014 - Aug 2015","Dec 2012 - Aug 2013"],
        "supervisor": "Scott Petersen",
        "phone": "(801) 461-4988",
        "address": "293 E 3300 S, Salt Lake City, UT 84115",
        "title": "Sales Associate",
        "duties": ["Knowledge of batteries","Salesmanship/Customer interaction","Shift supervisor"]
    },
    {
        "company": "Brigham Young University Museum of Art",
        "location": "Provo, Utah",
        "dates": "Feb 2012 - Dec 2012",
        "supervisor": "Jeff Lambson",
        "phone": "(801) 422-8052",
        "address": "Campus Dr, Provo, UT 84602",
        "title": "Assistant to the Curator of Contemporary Art",
        "duties": ["Assisted with three contemporary art exhibitions","Audience centered writing","Research"]
    },
    {
        "company": "Smithsonian Institution, Office of Advancement",
        "location": "Washington D.C.",
        "dates": "Sep 2011 - Dec 2011",
        "supervisor": "Rumana Chaudhri",
        "phone": "202-633-4300",
        "address": "1000 Jefferson Dr SW, Washington, DC 20560",
        "title": "Unpaid Internship",
        "duties": ["Preparing materials for Smithsonian National Board Meeting","Event planning","Knowledge of fundraising and development practices for non-profits"]
    },
    {
        "company": "Springville Museum of Art",
        "location": "Springville, Utah",
        "dates": "Apr 2011 - Aug 2011",
        "supervisor": "Ashlee Whitaker",
        "phone": "801-489-2727",
        "address": "126 E 400 S, Springville, UT 84663",
        "title": "Unpaid Internship",
        "duties": ["Research","Gallery preparation","Maintaining database of artists"]
    },
    {
        "company": "Brigham Young University Museum of Art",
        "location": "Provo, Utah",
        "dates": "Apr 2011 - Aug 2011",
        "supervisor": "Jeff Lambson",
        "phone": "(801) 422-8052",
        "address": "Campus Dr, Provo, UT 84602",
        "title": "Unpaid Internship",
        "duties": ["Research","Team-based projects","Exhibition planning"]
    },
    {
        "company": "LT Tours",
        "location": "Las Vegas, Nevada",
        "dates": "Jun 2010 - Aug 2010",
        "supervisor": "Ryan Olsen",
        "phone": "(702) 210-0798",
        "address": "3662 E Russell Rd, Las Vegas, NV 89120",
        "title": "Contracted Tour Guide",
        "duties": ["Tours conducted in Japanese","Completed expense reports","Long hours of driving"]
    }
]